[{
  "_id": {
    "$oid": "664fa92674172c506ef16f6a"
  },
  "type": "Feature",
  "geometry": {
    "type": "Point",
    "coordinates": [
      -149.38716,
      60.20885
    ]
  },
  "properties": {
    "name": "ALASKA SEALIFE CENTER",
    "address": "301 RAILWAY AVENUE - PO BOX 1329"
  }
},
{
  "_id": {
    "$oid": "664fa92674172c506ef16f6b"
  },
  "type": "Feature",
  "geometry": {
    "type": "Point",
    "coordinates": [
      -110.77773,
      32.19934
    ]
  },
  "properties": {
    "name": "SONORAN SEA AQUARIUM",
    "address": "1805 S CEYLON PL"
  }
},
{
  "_id": {
    "$oid": "664fa92674172c506ef16f6c"
  },
  "type": "Feature",
  "geometry": {
    "type": "Point",
    "coordinates": [
      -122.4104,
      37.80032
    ]
  },
  "properties": {
    "name": "AQUARIUM OF THE BAY",
    "address": "THE EMBARCADERO AT BEACH STREET PIER 39"
  }
},
{
  "_id": {
    "$oid": "664fa92674172c506ef16f6d"
  },
  "type": "Feature",
  "geometry": {
    "type": "Point",
    "coordinates": [
      -118.19669,
      33.76322
    ]
  },
  "properties": {
    "name": "AQUARIUM OF THE PACIFIC",
    "address": "100 AQUARIUM WAY"
  }
},
{
  "_id": {
    "$oid": "664fa92674172c506ef16f6e"
  },
  "type": "Feature",
  "geometry": {
    "type": "Point",
    "coordinates": [
      -118.28595,
      33.71058
    ]
  },
  "properties": {
    "name": "CABRILLO MARINE AQUARIUM",
    "address": "3720 STEPHEN WHITE DRIVE"
  }
},
{
  "_id": {
    "$oid": "664fa92674172c506ef16f6f"
  },
  "type": "Feature",
  "geometry": {
    "type": "Point",
    "coordinates": [
      -120.67246,
      35.15758
    ]
  },
  "properties": {
    "name": "CENTRAL COAST AQUARIUM SOCIETY",
    "address": "1435 SHELL BEACH ROAD"
  }
},
{
  "_id": {
    "$oid": "664fa92674172c506ef16f70"
  },
  "type": "Feature",
  "geometry": {
    "type": "Point",
    "coordinates": [
      -118.42975,
      34.2011
    ]
  },
  "properties": {
    "name": "MARINE AQUARIUM SOCIETY OF LOS ANGELES COUNTY",
    "address": "13620 B SHERMAN WAY"
  }
},
{
  "_id": {
    "$oid": "664fa92674172c506ef16f71"
  },
  "type": "Feature",
  "geometry": {
    "type": "Point",
    "coordinates": [
      -117.92329,
      33.67324
    ]
  },
  "properties": {
    "name": "MARINE SCIENCE DEPARTMENT PUBLIC AQUARIUM",
    "address": "ORANGE COAST COLLEGE 2701 FAIRVIEW ROAD"
  }
},
{
  "_id": {
    "$oid": "664fa92674172c506ef16f72"
  },
  "type": "Feature",
  "geometry": {
    "type": "Point",
    "coordinates": [
      -122.05583,
      36.97755
    ]
  },
  "properties": {
    "name": "MARINE WILDLIFE VETERINARY CARE AND RESEARCH CENTER",
    "address": "110 SHAFFER ROAD"
  }
},
{
  "_id": {
    "$oid": "664fa92674172c506ef16f73"
  },
  "type": "Feature",
  "geometry": {
    "type": "Point",
    "coordinates": [
      -121.90177,
      36.61784
    ]
  },
  "properties": {
    "name": "MONTEREY BAY AQUARIUM",
    "address": "886 CANNERY ROW"
  }
},
{
  "_id": {
    "$oid": "664fa92674172c506ef16f74"
  },
  "type": "Feature",
  "geometry": {
    "type": "Point",
    "coordinates": [
      -117.09198,
      32.78258
    ]
  },
  "properties": {
    "name": "SAN DIEGO MARINE AQUARIUM SOCIETY",
    "address": "8488 SPRECKELS LANE"
  }
},
{
  "_id": {
    "$oid": "664fa92674172c506ef16f75"
  },
  "type": "Feature",
  "geometry": {
    "type": "Point",
    "coordinates": [
      -122.42854,
      37.80358
    ]
  },
  "properties": {
    "name": "SAN FRANCISCO AQUARIUM SOCIETY",
    "address": "PO BOX 282040"
  }
},
{
  "_id": {
    "$oid": "664fa92674172c506ef16f76"
  },
  "type": "Feature",
  "geometry": {
    "type": "Point",
    "coordinates": [
      -117.22195,
      32.76104
    ]
  },
  "properties": {
    "name": "SEAWORLD SAN DIEGO",
    "address": "500 SEAWORLD DRIVE"
  }
},
{
  "_id": {
    "$oid": "664fa92674172c506ef16f77"
  },
  "type": "Feature",
  "geometry": {
    "type": "Point",
    "coordinates": [
      -122.46932,
      37.77025
    ]
  },
  "properties": {
    "name": "STEINHART AQUARIUM",
    "address": "55 MUSIC CONCOURSE DRIVE"
  }
},
{
  "_id": {
    "$oid": "664fa92674172c506ef16f78"
  },
  "type": "Feature",
  "geometry": {
    "type": "Point",
    "coordinates": [
      -117.2401,
      32.87306
    ]
  },
  "properties": {
    "name": "STEPHEN BIRCH AQUARIUM-MUSEUM",
    "address": "2300 EXPEDITION WAY"
  }
},
{
  "_id": {
    "$oid": "664fa92674172c506ef16f79"
  },
  "type": "Feature",
  "geometry": {
    "type": "Point",
    "coordinates": [
      -117.12738,
      32.57564
    ]
  },
  "properties": {
    "name": "TIJUANA RIVER NATIONAL ESTUARINE RESEARCH RESERVE",
    "address": "301 CASPAIN WAY"
  }
},
{
  "_id": {
    "$oid": "664fa92674172c506ef16f7a"
  },
  "type": "Feature",
  "geometry": {
    "type": "Point",
    "coordinates": [
      -105.08621,
      39.80303
    ]
  },
  "properties": {
    "name": "COLORADO AQUARIUM SOCIETY",
    "address": "PO BOX 1253"
  }
},
{
  "_id": {
    "$oid": "664fa92674172c506ef16f7b"
  },
  "type": "Feature",
  "geometry": {
    "type": "Point",
    "coordinates": [
      -105.01206,
      39.75245
    ]
  },
  "properties": {
    "name": "LANDRY'S DOWNTOWN AQUARIUM - DENVER",
    "address": "700 WATER STREET"
  }
},
{
  "_id": {
    "$oid": "664fa92674172c506ef16f7c"
  },
  "type": "Feature",
  "geometry": {
    "type": "Point",
    "coordinates": [
      -73.41659,
      41.10084
    ]
  },
  "properties": {
    "name": "MARITIME AQUARIUM AT NORWALK",
    "address": "10 N WATER ST"
  }
},
{
  "_id": {
    "$oid": "664fa92674172c506ef16f7d"
  },
  "type": "Feature",
  "geometry": {
    "type": "Point",
    "coordinates": [
      -71.95821,
      41.37369
    ]
  },
  "properties": {
    "name": "MYSTIC AQUARIUM",
    "address": "55 COOGAN BLVD"
  }
},
{
  "_id": {
    "$oid": "664fa92674172c506ef16f7e"
  },
  "type": "Feature",
  "geometry": {
    "type": "Point",
    "coordinates": [
      -75.47021,
      38.91273
    ]
  },
  "properties": {
    "name": "MILFORD AQUARIUM",
    "address": "PO BOX 1198"
  }
},
{
  "_id": {
    "$oid": "664fa92674172c506ef16f7f"
  },
  "type": "Feature",
  "geometry": {
    "type": "Point",
    "coordinates": [
      -82.8107,
      27.97964
    ]
  },
  "properties": {
    "name": "CLEARWATER MARINE AQUARIUM",
    "address": "249 WINDWARD PASSAGE"
  }
},
{
  "_id": {
    "$oid": "664fa92674172c506ef16f80"
  },
  "type": "Feature",
  "geometry": {
    "type": "Point",
    "coordinates": [
      -82.44854,
      27.94344
    ]
  },
  "properties": {
    "name": "FLORIDA AQUARIUM",
    "address": "701 CHANNELSIDE DR"
  }
},
{
  "_id": {
    "$oid": "664fa92674172c506ef16f81"
  },
  "type": "Feature",
  "geometry": {
    "type": "Point",
    "coordinates": [
      -80.17338,
      26.04092
    ]
  },
  "properties": {
    "name": "GOLD COAST AQUARIUM SOCIETY OF SOUTH FLORIDA",
    "address": "3186 N 34TH ST"
  }
},
{
  "_id": {
    "$oid": "664fa92674172c506ef16f82"
  },
  "type": "Feature",
  "geometry": {
    "type": "Point",
    "coordinates": [
      -81.38262,
      30.19973
    ]
  },
  "properties": {
    "name": "GUANA TOLOMATO MATANZAS NATIONAL ESTUARINE RESEARCH RESERVE",
    "address": "505 GUANA RD"
  }
},
{
  "_id": {
    "$oid": "664fa92674172c506ef16f83"
  },
  "type": "Feature",
  "geometry": {
    "type": "Point",
    "coordinates": [
      -82.57772,
      27.3337
    ]
  },
  "properties": {
    "name": "MOTE MARINE LABORATORY & AQUARIUM",
    "address": "1600 KEN THOMPSON PARKWAY"
  }
},
{
  "_id": {
    "$oid": "664fa92674172c506ef16f84"
  },
  "type": "Feature",
  "geometry": {
    "type": "Point",
    "coordinates": [
      -82.63625,
      27.77344
    ]
  },
  "properties": {
    "name": "PIER AQUARIUM",
    "address": "800 SECOND AVENUE NE"
  }
},
{
  "_id": {
    "$oid": "664fa92674172c506ef16f85"
  },
  "type": "Feature",
  "geometry": {
    "type": "Point",
    "coordinates": [
      -81.70841,
      26.05139
    ]
  },
  "properties": {
    "name": "ROOKERY BAY NATIONAL ESTUARINE RESEARCH RESERVE",
    "address": "300 TOWER ROAD"
  }
},
{
  "_id": {
    "$oid": "664fa92674172c506ef16f86"
  },
  "type": "Feature",
  "geometry": {
    "type": "Point",
    "coordinates": [
      -81.80476,
      24.55616
    ]
  },
  "properties": {
    "name": "SAM AND CHRISTINE TROPHIA BUTTERFLY RESEARCH AND EDUCATION CENTER",
    "address": "PO BOX 6623"
  }
},
{
  "_id": {
    "$oid": "664fa92674172c506ef16f87"
  },
  "type": "Feature",
  "geometry": {
    "type": "Point",
    "coordinates": [
      -81.47165,
      28.40739
    ]
  },
  "properties": {
    "name": "SEAWORLD ORLANDO",
    "address": "7007 SEAWORLD DRIVE"
  }
},
{
  "_id": {
    "$oid": "664fa92674172c506ef16f88"
  },
  "type": "Feature",
  "geometry": {
    "type": "Point",
    "coordinates": [
      -82.83776,
      27.83883
    ]
  },
  "properties": {
    "name": "SUNCOAST SEABIRD SANCTUARY",
    "address": "18328 GULF BLVD"
  }
},
{
  "_id": {
    "$oid": "664fa92674172c506ef16f89"
  },
  "type": "Feature",
  "geometry": {
    "type": "Point",
    "coordinates": [
      -82.32057,
      27.86465
    ]
  },
  "properties": {
    "name": "TAMPA BAY AQUARIUM SOCIETY",
    "address": "PO BOX 27044"
  }
},
{
  "_id": {
    "$oid": "664fa92674172c506ef16f8a"
  },
  "type": "Feature",
  "geometry": {
    "type": "Point",
    "coordinates": [
      -81.53743,
      28.38311
    ]
  },
  "properties": {
    "name": "THE SEAS",
    "address": "2020 N AVENUE OF THE STARS"
  }
},
{
  "_id": {
    "$oid": "664fa92674172c506ef16f8b"
  },
  "type": "Feature",
  "geometry": {
    "type": "Point",
    "coordinates": [
      -84.39404,
      33.76238
    ]
  },
  "properties": {
    "name": "GEORGIA AQUARIUM",
    "address": "225 BAKER ST NW"
  }
},
{
  "_id": {
    "$oid": "664fa92674172c506ef16f8c"
  },
  "type": "Feature",
  "geometry": {
    "type": "Point",
    "coordinates": [
      -157.84398,
      21.30418
    ]
  },
  "properties": {
    "name": "HONOLULU AQUARIUM SOCIETY",
    "address": "PO BOX 235791"
  }
},
{
  "_id": {
    "$oid": "664fa92674172c506ef16f8d"
  },
  "type": "Feature",
  "geometry": {
    "type": "Point",
    "coordinates": [
      -157.82178,
      21.26559
    ]
  },
  "properties": {
    "name": "WAIKIKI AQUARIUM",
    "address": "2777 KALAKAUA AVENUE"
  }
},
{
  "_id": {
    "$oid": "664fa92674172c506ef16f8e"
  },
  "type": "Feature",
  "geometry": {
    "type": "Point",
    "coordinates": [
      -91.76898,
      42.08057
    ]
  },
  "properties": {
    "name": "EASTERN IOWA AQUARIUM ASSOCIATION",
    "address": "PO BOX 2327"
  }
},
{
  "_id": {
    "$oid": "664fa92674172c506ef16f8f"
  },
  "type": "Feature",
  "geometry": {
    "type": "Point",
    "coordinates": [
      -111.78658,
      43.82945
    ]
  },
  "properties": {
    "name": "EAST IDAHO AQUARIUM",
    "address": "160 N 1ST W APT 56"
  }
},
{
  "_id": {
    "$oid": "664fa92674172c506ef16f90"
  },
  "type": "Feature",
  "geometry": {
    "type": "Point",
    "coordinates": [
      -116.27411,
      43.6056
    ]
  },
  "properties": {
    "name": "IDAHO AQUARIUM",
    "address": "64 N COLE RD"
  }
},
{
  "_id": {
    "$oid": "664fa92674172c506ef16f91"
  },
  "type": "Feature",
  "geometry": {
    "type": "Point",
    "coordinates": [
      -87.67896,
      41.82796
    ]
  },
  "properties": {
    "name": "AQUARIUM FISH SANCTUARY",
    "address": "3652 SOUTH HAMILTON"
  }
},
{
  "_id": {
    "$oid": "664fa92674172c506ef16f92"
  },
  "type": "Feature",
  "geometry": {
    "type": "Point",
    "coordinates": [
      -87.84935,
      42.0459
    ]
  },
  "properties": {
    "name": "CHICAGO MARINE AQUARIUM SOCIETY",
    "address": "2268 WOODVIEW LANE"
  }
},
{
  "_id": {
    "$oid": "664fa92674172c506ef16f93"
  },
  "type": "Feature",
  "geometry": {
    "type": "Point",
    "coordinates": [
      -87.61907,
      41.86668
    ]
  },
  "properties": {
    "name": "JOHN G. SHEDD AQUARIUM",
    "address": "1200 S LAKE SHORE DRIVE"
  }
},
{
  "_id": {
    "$oid": "664fa92674172c506ef16f94"
  },
  "type": "Feature",
  "geometry": {
    "type": "Point",
    "coordinates": [
      -89.49824,
      37.62397
    ]
  },
  "properties": {
    "name": "NATIONAL MISSISSIPPI RIVER MUSEUM & AQUARIUM",
    "address": "120 MAIN STREET"
  }
},
{
  "_id": {
    "$oid": "664fa92674172c506ef16f95"
  },
  "type": "Feature",
  "geometry": {
    "type": "Point",
    "coordinates": [
      -87.61905,
      41.8675
    ]
  },
  "properties": {
    "name": "SHEDD AQUARIUM SOCIETY",
    "address": "1200 S LAKE SHORE DR"
  }
},
{
  "_id": {
    "$oid": "664fa92674172c506ef16f96"
  },
  "type": "Feature",
  "geometry": {
    "type": "Point",
    "coordinates": [
      -84.49425,
      39.09066
    ]
  },
  "properties": {
    "name": "NEWPORT AQUARIUM",
    "address": "ONE AQUARIUM WAY"
  }
},
{
  "_id": {
    "$oid": "664fa92674172c506ef16f97"
  },
  "type": "Feature",
  "geometry": {
    "type": "Point",
    "coordinates": [
      -90.06427,
      29.95018
    ]
  },
  "properties": {
    "name": "AUDUBON AQUARIUM OF THE AMERICAS",
    "address": "1 CANAL STREET"
  }
},
{
  "_id": {
    "$oid": "664fa92674172c506ef16f98"
  },
  "type": "Feature",
  "geometry": {
    "type": "Point",
    "coordinates": [
      -71.05321,
      42.35839
    ]
  },
  "properties": {
    "name": "NEW ENGLAND AQUARIUM MARINE LIFE CENTER",
    "address": "177 MILK ST"
  }
},
{
  "_id": {
    "$oid": "664fa92674172c506ef16f99"
  },
  "type": "Feature",
  "geometry": {
    "type": "Point",
    "coordinates": [
      -70.58628,
      41.627
    ]
  },
  "properties": {
    "name": "WAQUOIT BAY NATIONAL ESTUARINE RESEARCH RESERVE",
    "address": "PO BOX 3522"
  }
},
{
  "_id": {
    "$oid": "664fa92674172c506ef16f9a"
  },
  "type": "Feature",
  "geometry": {
    "type": "Point",
    "coordinates": [
      -76.50539,
      38.98299
    ]
  },
  "properties": {
    "name": "CHESAPEAKE BAY VIRGINIA NATIONAL ESTUARINE RESEARCH RESERVE",
    "address": "580 TAYLOR AVE"
  }
},
{
  "_id": {
    "$oid": "664fa92674172c506ef16f9b"
  },
  "type": "Feature",
  "geometry": {
    "type": "Point",
    "coordinates": [
      -76.60875,
      39.2866
    ]
  },
  "properties": {
    "name": "NATIONAL AQUARIUM",
    "address": "501 E PRATT ST"
  }
},
{
  "_id": {
    "$oid": "664fa92674172c506ef16f9c"
  },
  "type": "Feature",
  "geometry": {
    "type": "Point",
    "coordinates": [
      -70.25538,
      43.65408
    ]
  },
  "properties": {
    "name": "GULF OF MAINE AQUARIUM",
    "address": "97A EXCHANGE ST"
  }
},
{
  "_id": {
    "$oid": "664fa92674172c506ef16f9d"
  },
  "type": "Feature",
  "geometry": {
    "type": "Point",
    "coordinates": [
      -70.25538,
      43.65408
    ]
  },
  "properties": {
    "name": "GULF OF MAINE RESEARCH INSTITUTE",
    "address": "350 COMMERCIAL ST"
  }
},
{
  "_id": {
    "$oid": "664fa92674172c506ef16f9e"
  },
  "type": "Feature",
  "geometry": {
    "type": "Point",
    "coordinates": [
      -70.55512,
      43.34062
    ]
  },
  "properties": {
    "name": "WELLS NATIONAL ESTUARINE RESEARCH RESERVE",
    "address": "342 LAUDHOLM FARM RD"
  }
},
{
  "_id": {
    "$oid": "664fa92674172c506ef16f9f"
  },
  "type": "Feature",
  "geometry": {
    "type": "Point",
    "coordinates": [
      -86.22867,
      43.21134
    ]
  },
  "properties": {
    "name": "GREAT LAKES AQUARIUM",
    "address": "PO BOX 1727"
  }
},
{
  "_id": {
    "$oid": "664fa92674172c506ef16fa0"
  },
  "type": "Feature",
  "geometry": {
    "type": "Point",
    "coordinates": [
      -83.12935,
      42.5077
    ]
  },
  "properties": {
    "name": "GREATER DETROIT AQUARIUM SOCIETY",
    "address": "2101 N VERMONT AVE"
  }
},
{
  "_id": {
    "$oid": "664fa92674172c506ef16fa1"
  },
  "type": "Feature",
  "geometry": {
    "type": "Point",
    "coordinates": [
      -83.37808,
      42.62511
    ]
  },
  "properties": {
    "name": "MARINELIFE AQUARIUM SOCIETY OF MICHIGAN",
    "address": "204 S UNION ST"
  }
},
{
  "_id": {
    "$oid": "664fa92674172c506ef16fa2"
  },
  "type": "Feature",
  "geometry": {
    "type": "Point",
    "coordinates": [
      -93.23436,
      44.72829
    ]
  },
  "properties": {
    "name": "MINNESOTA AQUARIUM SOCIETY",
    "address": "965 BEACON LANE"
  }
},
{
  "_id": {
    "$oid": "664fa92674172c506ef16fa3"
  },
  "type": "Feature",
  "geometry": {
    "type": "Point",
    "coordinates": [
      -93.31933,
      44.9123
    ]
  },
  "properties": {
    "name": "PANDORAS AQUARIUM",
    "address": "3109 W 50TH ST STE 320"
  }
},
{
  "_id": {
    "$oid": "664fa92674172c506ef16fa4"
  },
  "type": "Feature",
  "geometry": {
    "type": "Point",
    "coordinates": [
      -93.2977,
      44.95261
    ]
  },
  "properties": {
    "name": "TWIN CITIES MARINE AQUARIUM SOCIETY",
    "address": "2751 HENNEPIN AVENUE SOUTH PMB 277"
  }
},
{
  "_id": {
    "$oid": "664fa92674172c506ef16fa5"
  },
  "type": "Feature",
  "geometry": {
    "type": "Point",
    "coordinates": [
      -90.20002,
      38.63354
    ]
  },
  "properties": {
    "name": "CHILDREN'S AQUARIUM",
    "address": "701 N 15TH ST"
  }
},
{
  "_id": {
    "$oid": "664fa92674172c506ef16fa6"
  },
  "type": "Feature",
  "geometry": {
    "type": "Point",
    "coordinates": [
      -94.58172,
      39.08279
    ]
  },
  "properties": {
    "name": "SEA LIFE AQUARIUM - KANSAS CITY",
    "address": "2475 GRAND BLVD"
  }
},
{
  "_id": {
    "$oid": "664fa92674172c506ef16fa7"
  },
  "type": "Feature",
  "geometry": {
    "type": "Point",
    "coordinates": [
      -90.60302,
      38.52119
    ]
  },
  "properties": {
    "name": "WILD CANID SURVIVAL AND RESEARCH CENTER",
    "address": "PO BOX 760"
  }
},
{
  "_id": {
    "$oid": "664fa92674172c506ef16fa8"
  },
  "type": "Feature",
  "geometry": {
    "type": "Point",
    "coordinates": [
      -90.20002,
      38.63354
    ]
  },
  "properties": {
    "name": "WORLD AQUARIUM",
    "address": "701 NORTH 15TH STREET 2ND FLOOR"
  }
},
{
  "_id": {
    "$oid": "664fa92674172c506ef16fa9"
  },
  "type": "Feature",
  "geometry": {
    "type": "Point",
    "coordinates": [
      -89.33893,
      31.33018
    ]
  },
  "properties": {
    "name": "J. L. SCOTT MARINE EDUCATION CENTER AND AQUARIUM",
    "address": "118 COLLEGE DRIVE # 0001"
  }
},
{
  "_id": {
    "$oid": "664fa92674172c506ef16faa"
  },
  "type": "Feature",
  "geometry": {
    "type": "Point",
    "coordinates": [
      -77.92718,
      33.96286
    ]
  },
  "properties": {
    "name": "NORTH CAROLINA AQUARIUM AT FORT FISHER",
    "address": "900 LOGGERHEAD ROAD"
  }
},
{
  "_id": {
    "$oid": "664fa92674172c506ef16fab"
  },
  "type": "Feature",
  "geometry": {
    "type": "Point",
    "coordinates": [
      -76.82176,
      34.69692
    ]
  },
  "properties": {
    "name": "NORTH CAROLINA AQUARIUM AT PINE KNOLL SHORES",
    "address": "1 ROOSEVELT DRIVE"
  }
},
{
  "_id": {
    "$oid": "664fa92674172c506ef16fac"
  },
  "type": "Feature",
  "geometry": {
    "type": "Point",
    "coordinates": [
      -75.70493,
      35.91945
    ]
  },
  "properties": {
    "name": "NORTH CAROLINA AQUARIUM ON ROANOKE ISLAND",
    "address": "374 AIRPORT ROAD"
  }
},
{
  "_id": {
    "$oid": "664fa92674172c506ef16fad"
  },
  "type": "Feature",
  "geometry": {
    "type": "Point",
    "coordinates": [
      -78.58379,
      35.82075
    ]
  },
  "properties": {
    "name": "NORTH CAROLINA AQUARIUM SOCIETY",
    "address": "3125 POPLARWOOD COURT"
  }
},
{
  "_id": {
    "$oid": "664fa92674172c506ef16fae"
  },
  "type": "Feature",
  "geometry": {
    "type": "Point",
    "coordinates": [
      -75.69304,
      36.06662
    ]
  },
  "properties": {
    "name": "NORTH CAROLINA NATIONAL ESTUARINE RESEARCH RESERVE",
    "address": "983 W KITTY HAWK RD"
  }
},
{
  "_id": {
    "$oid": "664fa92674172c506ef16faf"
  },
  "type": "Feature",
  "geometry": {
    "type": "Point",
    "coordinates": [
      -95.92949,
      41.22416
    ]
  },
  "properties": {
    "name": "OMAHA'S HENRY DOORLY ZOO & AQUARIUM",
    "address": "3701 S 10TH ST"
  }
},
{
  "_id": {
    "$oid": "664fa92674172c506ef16fb0"
  },
  "type": "Feature",
  "geometry": {
    "type": "Point",
    "coordinates": [
      -70.89625,
      43.05403
    ]
  },
  "properties": {
    "name": "GREAT BAY NATIONAL ESTUARINE RESEARCH RESERVE",
    "address": "89 DEPOT RD"
  }
},
{
  "_id": {
    "$oid": "664fa92674172c506ef16fb1"
  },
  "type": "Feature",
  "geometry": {
    "type": "Point",
    "coordinates": [
      -75.13012,
      39.94323
    ]
  },
  "properties": {
    "name": "ADVENTURE AQUARIUM",
    "address": "1 RIVERSIDE DRIVE"
  }
},
{
  "_id": {
    "$oid": "664fa92674172c506ef16fb2"
  },
  "type": "Feature",
  "geometry": {
    "type": "Point",
    "coordinates": [
      -74.03687,
      40.09421
    ]
  },
  "properties": {
    "name": "JENKINSON'S AQUARIUM",
    "address": "300 OCEAN AVENUE"
  }
},
{
  "_id": {
    "$oid": "664fa92674172c506ef16fb3"
  },
  "type": "Feature",
  "geometry": {
    "type": "Point",
    "coordinates": [
      -115.15999,
      36.11031
    ]
  },
  "properties": {
    "name": "SHARK REEF AQUARIUM AT MANDALAY BAY",
    "address": "3950 LAS VEGAS BLVD SOUTH"
  }
},
{
  "_id": {
    "$oid": "664fa92674172c506ef16fb4"
  },
  "type": "Feature",
  "geometry": {
    "type": "Point",
    "coordinates": [
      -73.95435,
      40.58343
    ]
  },
  "properties": {
    "name": "BROOKLYN AQUARIUM",
    "address": "2751 CONEY ISLAND AVE"
  }
},
{
  "_id": {
    "$oid": "664fa92674172c506ef16fb5"
  },
  "type": "Feature",
  "geometry": {
    "type": "Point",
    "coordinates": [
      -76.14939,
      43.0724
    ]
  },
  "properties": {
    "name": "CENTRAL NEW YORK AQUARIUM SOCIETY",
    "address": "923 WADSWORTH ST"
  }
},
{
  "_id": {
    "$oid": "664fa92674172c506ef16fb6"
  },
  "type": "Feature",
  "geometry": {
    "type": "Point",
    "coordinates": [
      -73.72477,
      40.80051
    ]
  },
  "properties": {
    "name": "GREATEST CITY AQUARIUM SOCIETY",
    "address": "58 PLYMOUTH ROAD"
  }
},
{
  "_id": {
    "$oid": "664fa92674172c506ef16fb7"
  },
  "type": "Feature",
  "geometry": {
    "type": "Point",
    "coordinates": [
      -73.8834,
      41.85131
    ]
  },
  "properties": {
    "name": "HUDSON RIVER NATIONAL ESTUARINE RESEARCH RESERVE",
    "address": "MARGARET NORRIE STATE PARK"
  }
},
{
  "_id": {
    "$oid": "664fa92674172c506ef16fb8"
  },
  "type": "Feature",
  "geometry": {
    "type": "Point",
    "coordinates": [
      -73.64222,
      40.82845
    ]
  },
  "properties": {
    "name": "NASSAU COUNTY AQUARIUM SOCIETY",
    "address": "PO BOX 358"
  }
},
{
  "_id": {
    "$oid": "664fa92674172c506ef16fb9"
  },
  "type": "Feature",
  "geometry": {
    "type": "Point",
    "coordinates": [
      -73.98584,
      40.57715
    ]
  },
  "properties": {
    "name": "NEW YORK AQUARIUM",
    "address": "SURF AVENUE AT WEST 8TH STREET"
  }
},
{
  "_id": {
    "$oid": "664fa92674172c506ef16fba"
  },
  "type": "Feature",
  "geometry": {
    "type": "Point",
    "coordinates": [
      -79.06056,
      43.09422
    ]
  },
  "properties": {
    "name": "NIAGARA AQUARIUM",
    "address": "701 WHIRLPOOL ST"
  }
},
{
  "_id": {
    "$oid": "664fa92674172c506ef16fbb"
  },
  "type": "Feature",
  "geometry": {
    "type": "Point",
    "coordinates": [
      -81.66576,
      41.33457
    ]
  },
  "properties": {
    "name": "CLEVELAND AQUARIUM",
    "address": "3412 RIDGE PARK DR"
  }
},
{
  "_id": {
    "$oid": "664fa92674172c506ef16fbc"
  },
  "type": "Feature",
  "geometry": {
    "type": "Point",
    "coordinates": [
      -83.27393,
      40.1
    ]
  },
  "properties": {
    "name": "COLUMBUS AQUARIUM",
    "address": "1038 WILLOW CREK DR"
  }
},
{
  "_id": {
    "$oid": "664fa92674172c506ef16fbd"
  },
  "type": "Feature",
  "geometry": {
    "type": "Point",
    "coordinates": [
      -83.10565,
      40.16385
    ]
  },
  "properties": {
    "name": "COLUMBUS ZOO AND AQUARIUM",
    "address": "PO BOX 400"
  }
},
{
  "_id": {
    "$oid": "664fa92674172c506ef16fbe"
  },
  "type": "Feature",
  "geometry": {
    "type": "Point",
    "coordinates": [
      -84.52812,
      39.28698
    ]
  },
  "properties": {
    "name": "GREATER CINCINNATI AQUARIUM SOCIETY",
    "address": "PO BOX 40477"
  }
},
{
  "_id": {
    "$oid": "664fa92674172c506ef16fbf"
  },
  "type": "Feature",
  "geometry": {
    "type": "Point",
    "coordinates": [
      -81.70532,
      41.49657
    ]
  },
  "properties": {
    "name": "GREATER CLEVELAND AQUARIUM",
    "address": "2000 SYCAMORE ST"
  }
},
{
  "_id": {
    "$oid": "664fa92674172c506ef16fc0"
  },
  "type": "Feature",
  "geometry": {
    "type": "Point",
    "coordinates": [
      -82.12428,
      41.1016
    ]
  },
  "properties": {
    "name": "MEDINA COUNTY AQUARIUM SOCIETY",
    "address": "PO BOX 1485"
  }
},
{
  "_id": {
    "$oid": "664fa92674172c506ef16fc1"
  },
  "type": "Feature",
  "geometry": {
    "type": "Point",
    "coordinates": [
      -82.51483,
      41.38276
    ]
  },
  "properties": {
    "name": "OLD WOMAN CREEK NATIONAL ESTUARINE RESEARCH RESERVE",
    "address": "2514 CLEVELAND ROAD"
  }
},
{
  "_id": {
    "$oid": "664fa92674172c506ef16fc2"
  },
  "type": "Feature",
  "geometry": {
    "type": "Point",
    "coordinates": [
      -124.04691,
      44.62343
    ]
  },
  "properties": {
    "name": "MARK O. HATFIELD MARINE SCIENCE CENTER AQUARIUM NEWPORT",
    "address": "2030 SOUTHEAST MARINE SCIENCE DRIVE"
  }
},
{
  "_id": {
    "$oid": "664fa92674172c506ef16fc3"
  },
  "type": "Feature",
  "geometry": {
    "type": "Point",
    "coordinates": [
      -124.05239,
      44.61825
    ]
  },
  "properties": {
    "name": "OREGON COAST AQUARIUM",
    "address": "2820 SE FENY SLIP ROAD"
  }
},
{
  "_id": {
    "$oid": "664fa92674172c506ef16fc4"
  },
  "type": "Feature",
  "geometry": {
    "type": "Point",
    "coordinates": [
      -124.22586,
      43.36387
    ]
  },
  "properties": {
    "name": "SOUTH SLOUGH NATIONAL ESTUARINE RESEARCH RESERVE",
    "address": "61907 SEVEN DEVILS RD"
  }
},
{
  "_id": {
    "$oid": "664fa92674172c506ef16fc5"
  },
  "type": "Feature",
  "geometry": {
    "type": "Point",
    "coordinates": [
      -75.04868,
      40.38086
    ]
  },
  "properties": {
    "name": "BUCKS COUNTY AQUARIUM SOCIETY",
    "address": "PO BOX 130"
  }
},
{
  "_id": {
    "$oid": "664fa92674172c506ef16fc6"
  },
  "type": "Feature",
  "geometry": {
    "type": "Point",
    "coordinates": [
      -77.0147,
      41.25009
    ]
  },
  "properties": {
    "name": "NORTH CENTRAL PENNSYLVANIA AQUARIUM REEF SOCIETY",
    "address": "1110 WALNUT STREET"
  }
},
{
  "_id": {
    "$oid": "664fa92674172c506ef16fc7"
  },
  "type": "Feature",
  "geometry": {
    "type": "Point",
    "coordinates": [
      -79.92113,
      40.4827
    ]
  },
  "properties": {
    "name": "PITTSBURGH ZOO & PPG AQUARIUM",
    "address": "ONE WILD PLACE"
  }
},
{
  "_id": {
    "$oid": "664fa92674172c506ef16fc8"
  },
  "type": "Feature",
  "geometry": {
    "type": "Point",
    "coordinates": [
      -71.29815,
      41.48493
    ]
  },
  "properties": {
    "name": "NEWPORT EXPLORATION CENTER AQUARIUM",
    "address": "175 MEMORIAL BLVD"
  }
},
{
  "_id": {
    "$oid": "664fa92674172c506ef16fc9"
  },
  "type": "Feature",
  "geometry": {
    "type": "Point",
    "coordinates": [
      -71.56999,
      41.69122
    ]
  },
  "properties": {
    "name": "OCEANS AQUARIUM RESEARCH & SCIENCE CENTER",
    "address": "1260 MAIN ST"
  }
},
{
  "_id": {
    "$oid": "664fa92674172c506ef16fca"
  },
  "type": "Feature",
  "geometry": {
    "type": "Point",
    "coordinates": [
      -81.14641,
      34.00272
    ]
  },
  "properties": {
    "name": "COLUMBIA MARINE AQUARIUM CLUB",
    "address": "101 LANDER DR"
  }
},
{
  "_id": {
    "$oid": "664fa92674172c506ef16fcb"
  },
  "type": "Feature",
  "geometry": {
    "type": "Point",
    "coordinates": [
      -78.88591,
      33.71618
    ]
  },
  "properties": {
    "name": "RIPLEY'S AQUARIUM",
    "address": "1110 CELEBRITY CIRCLE"
  }
},
{
  "_id": {
    "$oid": "664fa92674172c506ef16fcc"
  },
  "type": "Feature",
  "geometry": {
    "type": "Point",
    "coordinates": [
      -80.7849,
      32.14562
    ]
  },
  "properties": {
    "name": "SEA PINES FOREST PRESERVE FOUNDATION",
    "address": "175 GREENWOOD DR"
  }
},
{
  "_id": {
    "$oid": "664fa92674172c506ef16fcd"
  },
  "type": "Feature",
  "geometry": {
    "type": "Point",
    "coordinates": [
      -79.94594,
      32.79578
    ]
  },
  "properties": {
    "name": "SOUTH CAROLINA AQUARIUM",
    "address": "100 AQUARIUM WHARF"
  }
},
{
  "_id": {
    "$oid": "664fa92674172c506ef16fce"
  },
  "type": "Feature",
  "geometry": {
    "type": "Point",
    "coordinates": [
      -83.51481,
      35.71282
    ]
  },
  "properties": {
    "name": "RIPLEY'S AQUARIUM OF THE SMOKIES",
    "address": "88 RIVER RD"
  }
},
{
  "_id": {
    "$oid": "664fa92674172c506ef16fcf"
  },
  "type": "Feature",
  "geometry": {
    "type": "Point",
    "coordinates": [
      -85.311,
      35.05586
    ]
  },
  "properties": {
    "name": "TENNESSEE AQUARIUM",
    "address": "PO BOX 11048"
  }
},
{
  "_id": {
    "$oid": "664fa92674172c506ef16fd0"
  },
  "type": "Feature",
  "geometry": {
    "type": "Point",
    "coordinates": [
      -94.85554,
      29.28751
    ]
  },
  "properties": {
    "name": "AQUARIUM & RAINFOREST AT MOODY GARDENS",
    "address": "1 HOPE BLVD"
  }
},
{
  "_id": {
    "$oid": "664fa92674172c506ef16fd1"
  },
  "type": "Feature",
  "geometry": {
    "type": "Point",
    "coordinates": [
      -97.05056,
      28.02462
    ]
  },
  "properties": {
    "name": "AQUARIUM AT ROCKPORT HARBOR",
    "address": "706 NAVIGATION CIRCLE"
  }
},
{
  "_id": {
    "$oid": "664fa92674172c506ef16fd2"
  },
  "type": "Feature",
  "geometry": {
    "type": "Point",
    "coordinates": [
      -97.05902,
      32.62463
    ]
  },
  "properties": {
    "name": "DALLAS FORT WORTH MARINE AQUARIUM SOCIETY",
    "address": "1512 CRESTRIDGE DR"
  }
},
{
  "_id": {
    "$oid": "664fa92674172c506ef16fd3"
  },
  "type": "Feature",
  "geometry": {
    "type": "Point",
    "coordinates": [
      -96.80535,
      33.12032
    ]
  },
  "properties": {
    "name": "DALLAS MARINE AQUARIUM SOCIETY",
    "address": "PO BOX 851912"
  }
},
{
  "_id": {
    "$oid": "664fa92674172c506ef16fd4"
  },
  "type": "Feature",
  "geometry": {
    "type": "Point",
    "coordinates": [
      -96.80478,
      32.78322
    ]
  },
  "properties": {
    "name": "DALLAS WORLD AQUARIUM",
    "address": "1801 N GRIFFIN STREET"
  }
},
{
  "_id": {
    "$oid": "664fa92674172c506ef16fd5"
  },
  "type": "Feature",
  "geometry": {
    "type": "Point",
    "coordinates": [
      -96.80478,
      32.78322
    ]
  },
  "properties": {
    "name": "DALLAS WORLD AQUARIUM CORP",
    "address": "1801 N GRIFFIN ST"
  }
},
{
  "_id": {
    "$oid": "664fa92674172c506ef16fd6"
  },
  "type": "Feature",
  "geometry": {
    "type": "Point",
    "coordinates": [
      -96.34329,
      30.64486
    ]
  },
  "properties": {
    "name": "FEDERATION OF TEXAS AQUARIUM SOCIETIES",
    "address": "3502 CARTER CREEK PKWY"
  }
},
{
  "_id": {
    "$oid": "664fa92674172c506ef16fd7"
  },
  "type": "Feature",
  "geometry": {
    "type": "Point",
    "coordinates": [
      -95.40879,
      29.7506
    ]
  },
  "properties": {
    "name": "GREATER HOUSTON AQUARIUM CLUB",
    "address": "1709 BRUN ST"
  }
},
{
  "_id": {
    "$oid": "664fa92674172c506ef16fd8"
  },
  "type": "Feature",
  "geometry": {
    "type": "Point",
    "coordinates": [
      -95.36671,
      29.76457
    ]
  },
  "properties": {
    "name": "HOUSTON AQUARIUM",
    "address": "410 BAGBY STREET"
  }
},
{
  "_id": {
    "$oid": "664fa92674172c506ef16fd9"
  },
  "type": "Feature",
  "geometry": {
    "type": "Point",
    "coordinates": [
      -95.68854,
      29.5971
    ]
  },
  "properties": {
    "name": "MARINE AQUARIUM & REEF SOCIETY OF HOUSTON",
    "address": "223 DARBY TRAILS DRIVE"
  }
},
{
  "_id": {
    "$oid": "664fa92674172c506ef16fda"
  },
  "type": "Feature",
  "geometry": {
    "type": "Point",
    "coordinates": [
      -97.04241,
      32.96617
    ]
  },
  "properties": {
    "name": "SEA LIFE AQUARIUM - GRAPEVINE",
    "address": "3000 GRAPEVINE MILLS PKWY"
  }
},
{
  "_id": {
    "$oid": "664fa92674172c506ef16fdb"
  },
  "type": "Feature",
  "geometry": {
    "type": "Point",
    "coordinates": [
      -98.69915,
      29.46206
    ]
  },
  "properties": {
    "name": "SEAWORLD SAN ANTONIO",
    "address": "10500 SEAWORLD DRIVE"
  }
},
{
  "_id": {
    "$oid": "664fa92674172c506ef16fdc"
  },
  "type": "Feature",
  "geometry": {
    "type": "Point",
    "coordinates": [
      -97.16762,
      26.10975
    ]
  },
  "properties": {
    "name": "SOUTH PADRE ISLAND AQUARIUM",
    "address": "106 W MARLIN ST"
  }
},
{
  "_id": {
    "$oid": "664fa92674172c506ef16fdd"
  },
  "type": "Feature",
  "geometry": {
    "type": "Point",
    "coordinates": [
      -97.39201,
      27.81475
    ]
  },
  "properties": {
    "name": "TEXAS STATE AQUARIUM",
    "address": "2710 N SHORELINE BOULEVARD"
  }
},
{
  "_id": {
    "$oid": "664fa92674172c506ef16fde"
  },
  "type": "Feature",
  "geometry": {
    "type": "Point",
    "coordinates": [
      -112.01346,
      40.63089
    ]
  },
  "properties": {
    "name": "WASATCH MARINE AQUARIUM SOCIETY",
    "address": "6634 SOUTH 5135 WEST"
  }
},
{
  "_id": {
    "$oid": "664fa92674172c506ef16fdf"
  },
  "type": "Feature",
  "geometry": {
    "type": "Point",
    "coordinates": [
      -76.49879,
      37.24983
    ]
  },
  "properties": {
    "name": "CHESAPEAKE BAY VIRGINIA NATIONAL ESTUARINE RESEARCH RESERVE",
    "address": "7581 SPENCER ROAD"
  }
},
{
  "_id": {
    "$oid": "664fa92674172c506ef16fe0"
  },
  "type": "Feature",
  "geometry": {
    "type": "Point",
    "coordinates": [
      -77.235,
      38.87367
    ]
  },
  "properties": {
    "name": "POTOMAC VALLEY AQUARIUM SOCIETY",
    "address": "PO BOX 684"
  }
},
{
  "_id": {
    "$oid": "664fa92674172c506ef16fe1"
  },
  "type": "Feature",
  "geometry": {
    "type": "Point",
    "coordinates": [
      -122.51573,
      47.30119
    ]
  },
  "properties": {
    "name": "POINT DEFIANCE ZOO & AQUARIUM",
    "address": "5400 N PEARL ST"
  }
},
{
  "_id": {
    "$oid": "664fa92674172c506ef16fe2"
  },
  "type": "Feature",
  "geometry": {
    "type": "Point",
    "coordinates": [
      -122.36422,
      47.31125
    ]
  },
  "properties": {
    "name": "PUGET SOUND AQUARIUM SOCIETY",
    "address": "1322 HUDSON STREET"
  }
},
{
  "_id": {
    "$oid": "664fa92674172c506ef16fe3"
  },
  "type": "Feature",
  "geometry": {
    "type": "Point",
    "coordinates": [
      -122.34233,
      47.60755
    ]
  },
  "properties": {
    "name": "SEATTLE AQUARIUM",
    "address": "1438 ALASKAN WAY PIER 5"
  }
},
{
  "_id": {
    "$oid": "664fa92674172c506ef16fe4"
  },
  "type": "Feature",
  "geometry": {
    "type": "Point",
    "coordinates": [
      -87.94302,
      44.49313
    ]
  },
  "properties": {
    "name": "GREEN BAY AQUARIUM SOCIETY",
    "address": "825 N BAY RIDGE RD"
  }
}]